x
{"uom":"sec","depot":[{"id":3000,"name":"StartPoint","lat":12.9367408,"lng":77.6242903,"numVehicle":1,"location":[{"id":3001,"clusterNo":0,"name":"COGNIZANT BENGALURU,MURUGESH PLAYA,BANGALORE","lat":12.9528487,"lng":77.6498987,"load":1},{"id":3002,"clusterNo":0,"name":"TOP IN TOWN SUPER MARKET,MUNIAPPA LAYOUT,BANGALORE","lat":12.9532,"lng":77.6532,"load":1},{"id":3003,"clusterNo":0,"name":"SOLUTIONS GOLF VIEW CAMPUS,KARNATAKA,BANGALORE;SOLUTIONS GOLF VIEW CAMPUS,BENGALURU STATE,BANGALORE;SOLUTIONS GOLF VIEW CAMPUS,NAL WIND TUNNEL ROAD,BANGALORE","lat":12.953291,"lng":77.6502501666667,"load":1},{"id":3004,"clusterNo":0,"name":"GOLF VIEW CAMPUS,NAL WIND TUNNEL ROAD,BANGALORE","lat":12.9533985,"lng":77.6503099,"load":1},{"id":3005,"clusterNo":0,"name":"NAGARA JUNA SILVER CREST N,MURUGESHPALYA N,BANGALORE;NAGARA JUNA SILVER CREST N,NAL WIND TUNNEL ROAD,BANGALORE","lat":12.9543506,"lng":77.653175,"load":1},{"id":3006,"clusterNo":0,"name":"MATHRUKRUPA APPARTMENT,MURUGESHPALYA,BANGALORE;MATHRUKRUPA APPARTMENT,SR LAYOUT,BANGALORE","lat":12.9552376,"lng":77.6501464,"load":1},{"id":3007,"clusterNo":0,"name":"AGNA IND RAPRASTHA,MURUGESHPALYA BENGALURU,BANGALORE;AGNA IND RAPRASTHA,KARNATAKA,BANGALORE","lat":12.9553044,"lng":77.655089,"load":1},{"id":3008,"clusterNo":0,"name":"LTD,WIND TUNNEL ROAD,BANGALORE;GOLF VIEW,WIND TUNNEL ROAD,BANGALORE","lat":12.9553998,"lng":77.65561065,"load":1},{"id":3009,"clusterNo":0,"name":"SRI RAM NAGARI,OLD AIRPORT ROAD,BANGALORE","lat":12.9556128,"lng":77.6980226,"load":1},{"id":3010,"clusterNo":0,"name":"AIR FORCE CAMP,MURUGESH PALYA,BANGALORE","lat":12.956,"lng":77.6532,"load":1},{"id":3011,"clusterNo":0,"name":"AF CAMP MURGESHPALYA,VIMANPURA,BANGALORE","lat":12.9560303,"lng":77.6532906,"load":1},{"id":3012,"clusterNo":0,"name":"OXFORD STUDIO,RUSTUMB BAGH ROAD,BANGALORE;OXFORD STUDIO,KARNATAKA,BANGALORE","lat":12.9561931,"lng":77.64897785,"load":1},{"id":3013,"clusterNo":0,"name":"OXFORD HOUSE,KARNATAKA,BANGALORE;OXFORD HOUSE,RUTAM BAGH ROAD,BANGALORE","lat":12.9562876,"lng":77.6493394,"load":1},{"id":3014,"clusterNo":0,"name":"MODISONS ELEGANCE,NR LAYOUT,BANGALORE","lat":12.9563,"lng":77.65115,"load":1},{"id":3015,"clusterNo":0,"name":"CANOPY ROYAL MANOR,OFF,BANGALORE;CANOPY ROYAL MANOR,RUSTAMBAGH ROAD,BANGALORE","lat":12.9564911,"lng":77.6496168,"load":1},{"id":3016,"clusterNo":0,"name":"SRI RAMANAGARI,H A L POST,BANGALORE","lat":12.95733,"lng":77.65705,"load":1},{"id":3017,"clusterNo":0,"name":"THE DEAF,H A L ROAD,BANGALORE","lat":12.9575199,"lng":77.6487034,"load":1},{"id":3018,"clusterNo":0,"name":"SANTHOSH APARTMENTS,WIND TUNNEL ROAD,BANGALORE","lat":12.957695,"lng":77.6540175,"load":1},{"id":3019,"clusterNo":0,"name":"TOTAL MALL,SHIVA TEMPLE PIN,BANGALORE;TOTAL MALL,HAL POST,BANGALORE","lat":12.9581926,"lng":77.6621261,"load":1},{"id":3020,"clusterNo":0,"name":"MP CAMP AIRFORCE,OLD AIRPORT ROAD,BANGALORE","lat":12.9582666,"lng":77.6977949,"load":1},{"id":3021,"clusterNo":0,"name":"MANIPAL HOSPITAL,RUSTOM BHAG ROAD,BANGALORE","lat":12.9584214,"lng":77.6487708,"load":1},{"id":3022,"clusterNo":0,"name":"EN ENCLAVE APARTMENT,OLD AIRPORT ROAD,BANGALORE","lat":12.9584271,"lng":77.6516366,"load":1},{"id":3023,"clusterNo":0,"name":"TOTAL MALL,HAL POST,BANGALORE","lat":12.9585361,"lng":77.6678704,"load":1},{"id":3024,"clusterNo":0,"name":"MADHU SUDAN PG FOR,THIMMA REDDY,BANGALORE;MADHU SUDAN PG FOR,THIMMA REDDY,BANGALORE","lat":12.9585443,"lng":77.6547,"load":2},{"id":3025,"clusterNo":0,"name":"SURYA CHAMBERS,OLD AIRPORT ROAD,BANGALORE;SURYA CHAMBERS,MURUGESHPALYA OFF,BANGALORE;SURYA CHAMBERS,BANGALORE 560017,BANGALORE;SURYA CHAMBERS MURUGHESPALLYA,OLD AIRPORT ROAD,BANGALORE;SURYA CHAMBERS MURUGHESPALLYA,4TH FLOOR,BANGALORE","lat":12.958901,"lng":77.6543525,"load":2},{"id":3026,"clusterNo":0,"name":"RMZ TITANIUM BUILDING,BANGLORE 560017,BANGALORE;RMZ TITANIUM 135,OLD AIRPORT ROAD,BANGALORE;RMZ TITANIUM,OLD AIRPORT ROAD,BANGALORE","lat":12.958956,"lng":77.648163,"load":3},{"id":3027,"clusterNo":0,"name":"KEMPORT MALL,OLD AIRPORT ROAD,BANGALORE;KEMPORT MALL,SRIRAMANAGARI,BANGALORE","lat":12.9589772,"lng":77.6568617,"load":1},{"id":3028,"clusterNo":0,"name":"OASIS APARTMENTS,SR LAYOUT,BANGALORE","lat":12.959,"lng":77.655,"load":1},{"id":3029,"clusterNo":0,"name":"45 G,OLD EN ENCLAVE AIRPORT ROAD,BANGALORE","lat":12.9590475,"lng":77.6518447,"load":1},{"id":3030,"clusterNo":0,"name":"KEMP FORT MALL,OLD AIRPORT ROAD,BANGALORE","lat":12.95909185,"lng":77.6564957,"load":1},{"id":3031,"clusterNo":0,"name":"MURGESHPALYA BUS STOP,OLD AIRPORT ROAD,BANGALORE;MURGESHPALYA BUS STOP,KARNATAKA,BANGALORE;MURGESHPALYA BUS STOP,INDIA BANGALORE,BANGALORE","lat":12.9592186,"lng":77.6562249,"load":1},{"id":3032,"clusterNo":0,"name":"AISWARYA BACKERY,MURUGESHPALAYA,BANGALORE","lat":12.9592213,"lng":77.6556064,"load":1},{"id":3033,"clusterNo":0,"name":"AMICORP MANAGEMENT INDIA PVT LTD,135 OL,BANGALORE","lat":12.9594304,"lng":77.6482049,"load":1},{"id":3034,"clusterNo":0,"name":"HDFC BANK,OLD EN,BANGALORE","lat":12.9594356,"lng":77.6569167,"load":1},{"id":3035,"clusterNo":0,"name":"MANIPAL HOSPITAL,OLD AIRPORT ROAD,BANGALORE","lat":12.9595872,"lng":77.6493743,"load":1},{"id":3036,"clusterNo":0,"name":"MANIPAL HOSPITALS,OLD AIRPORT ROAD,BANGALORE;MANIPAL HOSPITALS,OLD AIRPORT ROAD,BANGALORE","lat":12.9596532,"lng":77.64998415,"load":2},{"id":3037,"clusterNo":0,"name":"SHRIRAM NAGARI,MURUGESHPALYA,BANGALORE","lat":12.961,"lng":77.649,"load":1},{"id":3038,"clusterNo":0,"name":"BHARAT GOLF VIEW APPARTMENTS,OF MANIPAL HOSPITAL BENGALORE,BANGALORE;CROSS RUSTAMBAGH,OF MANIPAL HOSPITAL BENGALORE,BANGALORE","lat":12.96285995,"lng":77.64954205,"load":1}],"vehicle":[{"clusterNo":0,"name":"KA_SOMETHING","id":6000,"capacity":999999999,"baseLocation":3000}]}],"distanceType":"air","capacity":999999999}
